"SiteCode","Countrycode","LocalCode","LocalName","Lat","Lon","EoICode","Altitude","AirQualityStationType","AirQualityStationArea","MeasurementType","InletHeight","BuildingDistance","KerbDistance","Source"
"ITC11_0HmZ1t9g.","IT","001175800","Oulx",45.0348,6.83592,"IT1847A",1077,"traffic","suburban","automatic",3.05,18,10,"ARPA-Piemonte"
"ITC11_0IL71tQV.","IT","001270801","Susa",45.13911,7.05006,"IT1114A",499,"background","suburban","automatic",3,9,5,"ARPA-Piemonte"
"ITC11_0Iqc1uBS.","IT","001073800","Ceresole",45.43022,7.2454,"IT1963A",1576,"background","rural","automatic",4.8,6,159,"ARPA-Piemonte"
"ITC11_0Jdg1t5B.","IT","001171801","Orbassano",45.00687,7.54963,"IT1120A",268,"background","suburban","automatic",3.2,17,57,"ARPA-Piemonte"
"ITC11_0JfO1tWQ.","IT","001099800","Druento La Mandria",45.17577,7.5602,"IT1121A",335,"background","rural","automatic",3.05,26,1398,"ARPA-Piemonte"
"ITC11_0JiF1tFm.","IT","001090804","Collegno",45.07258,7.57793,NA,NA,"traffic","urban",NA,NA,NA,NA,"ARPA-Piemonte"
"ITC11_0JlQ1t8s.","IT","001024802","Beinasco",45.02981,7.5976,NA,NA,"background","urban",NA,NA,NA,NA,"ARPA-Piemonte"
"ITC11_0Jpz1tAp.","IT","001272822","Torino Rubino",45.04188,7.62593,"IT1877A",260,"background","urban","automatic",3.05,56,72,"ARPA-Piemonte"
"ITC11_0Jre1swD.","IT","001309801","Vinovo",44.95131,7.63615,NA,NA,"background","suburban",NA,NA,NA,NA,"ARPA-Piemonte"
"ITC11_0Jti1t85.","IT","001272806","Torino Lingotto",45.02494,7.64905,"IT2168A",243,"background","urban","automatic",3.05,7,40,"ARPA-Piemonte"
"ITC11_0JvA1tT0.","IT","001028801","Borgaro Torinese",45.15464,7.65804,"IT1128A",257,"background","suburban","automatic",3.1,23,7,"ARPA-Piemonte"
"ITC11_0JyQ1tGI.","IT","001272803","Torino Consolata",45.07585,7.67822,"IT0469A",243,"traffic","urban","automatic",2.2,3,1,"ARPA-Piemonte"
"ITC11_0K1C1tKr.","IT","001272805","Torino Rebaudengo",45.10407,7.69536,"IT0470A",23,"traffic","urban","automatic",3.05,23,18,"ARPA-Piemonte"
"ITC11_0K3o1tWW.","IT","001130800","Leini",45.17635,7.71158,"IT2117A",246,"background","suburban","automatic",3.27,29,52,"ARPA-Piemonte"
"ITC11_0K4C1sfT.","IT","001059802","Carmagnola",44.84754,7.714,NA,NA,"traffic","urban",NA,NA,NA,NA,"ARPA-Piemonte"
"ITC11_0KEY1tRA.","IT","001265802","Settimo Torinese",45.1432,7.77818,"IT1130A",202,"traffic","urban","automatic",3.05,1,5,"ARPA-Piemonte"
"ITC11_0KGv1tFk.","IT","001018800","Baldissero Torinese",45.07236,7.79288,NA,NA,"background","rural",NA,NA,NA,NA,"ARPA-Piemonte"
"ITC11_0KO71t4W.","IT","001078802","Chieri",45.00276,7.83748,"IT2101A",271,"background","suburban","automatic",3.05,9,1,"ARPA-Piemonte"
"ITC11_0KUe1uEq.","IT","001125802","Ivrea",45.4512,7.87804,"IT1788A",240,"background","suburban","automatic",3.05,36,33,"ARPA-Piemonte"
"ITC12_0KvK1tpb.","IT","002042800","Cigliano",45.29475,8.04339,"IT2116A",211,"traffic","rural","automatic",3.28,21,22,"ARPA-Piemonte"
"ITC12_0LrE1ttV.","IT","002158803","Vercelli Coni",45.31891,8.40236,"IT1878A",131,"background","suburban","automatic",3.37,46,12,"ARPA-Piemonte"
"ITC12_0LtH1tv2.","IT","002158800","Vercelli Gastaldi",45.32842,8.41514,"IT1533A",130,"traffic","urban","automatic",3.3,19,7,"ARPA-Piemonte"
"ITC12_0LY31uv6.","IT","002016800","Borgosesia",45.71317,8.28353,"IT1532A",344,"background","urban","automatic",3.27,12,20,"ARPA-Piemonte"
"ITC13_0Kwa1uX4.","IT","002012803","Biella LaMarmora",45.56417,8.05122,NA,NA,"traffic","urban",NA,NA,NA,NA,"ARPA-Piemonte"
"ITC13_0KxQ1uWC.","IT","002012802","Biella Sturzo",45.55882,8.05639,"IT1247A",405,"background","urban","automatic",3.2,10,9,"ARPA-Piemonte"
"ITC13_0LE61unC.","IT","002149801","Trivero",45.66423,8.15981,"IT2104A",666,"background","suburban","automatic",3.33,13,79,"ARPA-Piemonte"
"ITC13_0LIa1uXr.","IT","002046800","Cossato",45.56911,8.18761,"IT1246A",271,"background","urban","automatic",3.43,13,8,"ARPA-Piemonte"
"ITC14_0LTb1wU8.","IT","003010800","Baceno",46.31478,8.25592,"IT1961A",1639,"background","rural","automatic",5,10,52,"ARPA-Piemonte"
"ITC14_0LtN1vP2.","IT","003110801","Omegna",45.89885,8.41574,"IT2102A",259,"traffic","urban","automatic",3.25,4,16,"ARPA-Piemonte"
"ITC14_0LVi1vhF.","IT","003118800","Pieve Vergonte",46.01172,8.269,NA,NA,"background","suburban",NA,NA,NA,NA,"ARPA-Piemonte"
"ITC14_0LZR1vzw.","IT","003061801","Domodossola",46.12761,8.29212,"IT2128A",281,"background","suburban","automatic",3.35,24,10,"ARPA-Piemonte"
"ITC14_0MHX1vU7.","IT","003156801","Verbania",45.93034,8.56548,"IT1510A",203,"background","urban","automatic",3.2,13,6,"ARPA-Piemonte"
"ITC15_0M0G1urG.","IT","003024802","Borgomanero",45.68943,8.45844,"IT2121A",301,"traffic","urban","automatic",3.25,14,10,"ARPA-Piemonte"
"ITC15_0MkD1uCb.","IT","003149800","Trecate",45.43728,8.74333,NA,NA,"background","urban",NA,NA,NA,NA,"ARPA-Piemonte"
"ITC15_0MNT1uv9.","IT","003043800","Castelletto Ticino",45.71353,8.60232,NA,NA,"background","rural",NA,NA,NA,NA,"ARPA-Piemonte"
"ITC15_0MQH1uD5.","IT","003106804","Novara Roma",45.44034,8.61969,"IT1676A",157,"traffic","urban","automatic",3.2,1,18,"ARPA-Piemonte"
"ITC15_0MQQ1uCl.","IT","003106803","Novara Verdi",45.43831,8.62061,"IT1518A",154,"background","urban","automatic",3.2,7,90,"ARPA-Piemonte"
"ITC15_0Mr91u89.","IT","003049800","Cerano",45.40973,8.78632,"IT1509A",124,"background","suburban","automatic",3.2,18,65,"ARPA-Piemonte"
"ITC15_0MUN1ubn.","IT","003108801","Oleggio",45.5935,8.64508,NA,NA,"traffic","urban",NA,NA,NA,NA,"ARPA-Piemonte"
"ITC16_0Jbq1rSM.","IT","004078800","Cuneo Alpini",44.38175,7.5382,"IT1529A",550,"background","urban","automatic",3.2,20,15,"ARPA-Piemonte"
"ITC16_0JJm1sKs.","IT","004180800","Revello",44.71976,7.42622,"IT2119A",268,"background","rural","automatic",3.35,638,18,"ARPA-Piemonte"
"ITC16_0KKQ1rVb.","IT","004130801","Mondovì",44.40186,7.81463,"IT2118A",409,"traffic","urban","automatic",3.55,16,4,"ARPA-Piemonte"
"ITC16_0KP11sIf.","IT","004029801","Bra",44.70615,7.8431,NA,NA,"traffic","urban",NA,NA,NA,NA,"ARPA-Piemonte"
"ITC16_0Kte1sIH.","IT","004003800","Alba",44.70371,8.03303,"IT1524A",164,"background","urban","automatic",3.2,19,6,"ARPA-Piemonte"
"ITC16_0LFf1rXG.","IT","004201800","Saliceto",44.41223,8.16951,"IT1519A",392,"background","rural","automatic",3.2,20,7,"ARPA-Piemonte"
"ITC17_0LcN1sZ6.","IT","005120800","Vinchio",44.80801,8.31031,"IT1948A",258,"background","rural","automatic",3.38,24,27,"ARPA-Piemonte"
"ITC17_0LKC1sn0.","IT","005005802","Asti Baussano",44.89422,8.19756,"IT1903A",119,"traffic","urban","automatic",3.2,13,10,"ARPA-Piemonte"
"ITC17_0LLT1spN.","IT","005005801","Asti Acquisto",44.90893,8.20546,"IT1523A",150,"background","urban","automatic",3.5,8,11,"ARPA-Piemonte"
"ITC18_0Ly81tQ1.","IT","006039801","Casale Monferrato",45.13612,8.44518,NA,NA,"background","urban",NA,NA,NA,NA,"ARPA-Piemonte"
"ITC18_0MP21sp0.","IT","006003801","Alessandria Annunzio",44.90661,8.612,"IT0643A",95,"traffic","urban","automatic",3.65,17,6,"ARPA-Piemonte"
"ITC18_0MQq1srD.","IT","006003805","Alessandria Volta",44.9203,8.6232,"IT1830A",91,"background","urban","automatic",3.5,31,25,"ARPA-Piemonte"
"ITC18_0MsV1sR3.","IT","006114801","Novi Ligure",44.75814,8.79472,NA,NA,"traffic","urban",NA,NA,NA,NA,"ARPA-Piemonte"
"ITC18_0N2y1sna.","IT","006174800","Tortona",44.8978,8.85964,NA,NA,"traffic","urban",NA,NA,NA,NA,"ARPA-Piemonte"
"ITC18_0NY41sRt.","IT","006066800","Dernice",44.76335,9.05243,"IT1904A",620,"background","rural","automatic",3.2,38,8,"ARPA-Piemonte"
"ITC20_0I7g1uxl.","IT","LTLG","La Thuile - Les Granges",45.7297,6.96684,NA,1637,"background","rural",NA,NA,NA,NA,"ARPA-VdA"
"ITC20_0IzG1uxt.","IT","AOMF","Aosta - Mont Fleury",45.7305,7.29903,"IT0980A",577,"background","suburban","automatic",3.5,NA,NA,"ARPA-VdA"
"ITC20_0J071uyW.","IT","AOLI","Aosta - Via Liconi",45.7344,7.30426,NA,582,"background","urban",NA,NA,NA,NA,"ARPA-VdA"
"ITC20_0J3F1uyv.","IT","AOPL","Aosta - Piazza Plouves",45.7369,7.32372,"IT0983A",580,"background","urban","automatic",3.5,NA,NA,"ARPA-VdA"
"ITC20_0KCe1ucI.","IT","DOMO","Donnas - Montey",45.5966,7.76643,"IT0988A",341,"background","rural","automatic",6,NA,NA,"ARPA-VdA"
"ITC32_0LLh1qb9.","IT","S020001","REGIONE CAVALLO - ALBENGA",44.05194,8.20694,"IT2038A",2,"traffic","urban","automatic",2.3,NA,NA,"ARPA-Liguria"
"ITC32_0LLY1rUo.","IT","S230009","RIO PARASACCO - CENGIO",44.39703,8.20604,"IT2155A",450,"background","rural","automatic",4,NA,NA,"ARPA-Liguria"
"ITC32_0Lsg1rEB.","IT","S520003","QUILIANO",44.29389,8.41139,"IT1144A",16,"industrial","suburban","automatic",4,NA,NA,"ARPA-Liguria"
"ITC32_0Lx71rAj.","IT","S640009","VADO LIGURE",44.2725,8.43889,"IT1143A",2,"industrial","urban","automatic",4,NA,NA,"ARPA-Liguria"
"ITC32_0LXb1rSS.","IT","S150002","LOCALITA' FARINA - CAIRO M.",44.38241,8.28069,"IT1232A",330,"industrial","suburban","automatic",3,NA,NA,"ARPA-Liguria"
"ITC32_0M2d1rHE.","IT","S560007","CORSO RICCI - SAVONA",44.31278,8.47306,"IT1145A",12,"traffic","urban","automatic",4,NA,NA,"ARPA-Liguria"
"ITC32_0M4e1rHd.","IT","S560018","VARALDO - SAVONA",44.31528,8.48556,"IT1883A",55,"background","urban","automatic",3,NA,NA,"ARPA-Liguria"
"ITC33_0MU31rTu.","IT","G170004","COGOLETO",44.39139,8.64306,"IT1944A",16,"background","suburban","automatic",1.8,NA,NA,"ARPA-Liguria"
"ITC33_0MxZ1rZQ.","IT","G250027","MULTEDO - PEGLI - GENOVA",44.42556,8.82611,"IT0852A",20,"traffic","urban","automatic",1.5,NA,NA,"ARPA-Liguria"
"ITC33_0N5H1roQ.","IT","G090001","CAMPORA - CAMPOMORONE",44.51861,8.87389,"IT1549A",120,"industrial","suburban","automatic",4,NA,NA,"ARPA-Liguria"
"ITC33_0N9i1rfQ.","IT","G250112","BOLZANETO - GENOVA",44.46278,8.90139,"IT1850A",60,"traffic","urban","automatic",4,NA,NA,"ARPA-Liguria"
"ITC33_0NBP1rXX.","IT","G250114","VIA BUOZZI - GENOVA",44.41389,8.91194,"IT1887A",17,"traffic","urban","automatic",4,NA,NA,"ARPA-Liguria"
"ITC33_0NDv1rYD.","IT","G250024","CORSO FIRENZE - GENOVA",44.41806,8.9275,"IT0854A",105,"background","urban","automatic",4,NA,NA,"ARPA-Liguria"
"ITC33_0NG71rWV.","IT","G250026","PARCO ACQUASOLA - GENOVA",44.4075,8.94111,"IT0856A",45,"background","urban","automatic",3.5,NA,NA,"ARPA-Liguria"
"ITC33_0NGy1rxA.","IT","G060002","PIAZZA GARIBALDI - BUSALLA",44.57278,8.94639,"IT1026A",380,"traffic","urban","automatic",3,NA,NA,"ARPA-Liguria"
"ITC33_0NHj1rxL.","IT","G060007","SARISSOLA - BUSALLA",44.57389,8.95111,"IT1751A",140,"industrial","suburban","automatic",4,NA,NA,"ARPA-Liguria"
"ITC33_0NHY1rVn.","IT","G250113","CORSO BUENOS AIRES - GENOVA",44.40306,8.95,"IT1884A",7,"traffic","urban","automatic",4,NA,NA,"ARPA-Liguria"
"ITC33_0NKT1rW6.","IT","G250107","SAN MARTINO - GENOVA",44.405,8.96806,"IT1698A",75,"traffic","urban","automatic",4,NA,NA,"ARPA-Liguria"
"ITC33_0NOM1rUi.","IT","G250017","QUARTO - GENOVA",44.39639,8.99222,"IT0858A",85,"background","urban","automatic",6.5,NA,NA,"ARPA-Liguria"
"ITC33_0NzV1rNV.","IT","G460001","RAPALLO",44.35167,9.2225,"IT2039A",3,"traffic","urban","automatic",4,NA,NA,"ARPA-Liguria"
"ITC33_0OFo1rI2.","IT","G150003","CHIAVARI",44.31778,9.32361,NA,NA,"traffic","urban",NA,NA,NA,NA,"ARPA-Liguria"
"ITC34_0Pav1qdD.","IT","L220001","LE GRAZIE - POTOVENERE",44.06472,9.83889,"IT1546A",21,"industrial","suburban","automatic",3,NA,NA,"ARPA-Liguria"
"ITC34_0PbY1qlm.","IT","L150016","MAGGIOLINA - LA SPEZIA",44.11778,9.84278,"IT1536A",6,"background","urban","automatic",3,NA,NA,"ARPA-Liguria"
"ITC34_0Pdy1qjz.","IT","L150017","FOSSAMASTRA - LA SPEZIA",44.10667,9.85778,"IT1544A",3,"industrial","urban","automatic",3,NA,NA,"ARPA-Liguria"
"ITC34_0PfG1qne.","IT","L150004","SAN VENERIO - LA SPEZIA",44.12944,9.86583,"IT1547A",176,"industrial","suburban","automatic",3,NA,NA,"ARPA-Liguria"
"ITC34_0PkQ1qwJ.","IT","L040002","BOLANO",44.18306,9.89778,"IT1548A",275,"background","rural","automatic",3,NA,NA,"ARPA-Liguria"
"ITC34_0Pte1qkf.","IT","L270002","LARGO PERTINI - SARZANA",44.11093,9.95503,"IT2229A",25,"traffic","urban","automatic",3,NA,NA,"ARPA-Liguria"
"ITC34_0PUQ1qmi.","IT","L150019","CHIAPPA - LA SPEZIA",44.12361,9.79861,"IT1662A",54,"background","suburban","automatic",3,NA,NA,"ARPA-Liguria"
"ITC34_0PXe1qjB.","IT","L150014","AMENDOLA - LA SPEZIA",44.10167,9.81861,"IT1457A",3,"traffic","urban","automatic",3.5,NA,NA,"ARPA-Liguria"
"ITC34_0PZw1qky.","IT","L150015","SAN CIPRIANO - LA SPEZIA",44.11278,9.83278,"IT1456A",2,"traffic","urban","automatic",3.5,NA,NA,"ARPA-Liguria"
"ITC41_0MmQ1ufw.","IT","687","Ferno",45.61924,8.75697,NA,215,NA,NA,NA,NA,NA,NA,"ARPA-Lombardia"
"ITC41_0Mtz1vF3.","IT","552","Varese - Vidoletti",45.8369,8.80393,"IT0732A",425,"background","urban","automatic",3.5,NA,NA,"ARPA-Lombardia"
"ITC41_0Mwc1vBq.","IT","560","Varese - via Copelli",45.81697,8.82024,"IT1588A",383,"traffic","urban","automatic",3.5,6,4,"ARPA-Lombardia"
"ITC41_0Myv1ua5.","IT","558","Busto Arsizio - Accam",45.58288,8.83449,"IT1459A",206,"background","suburban","automatic",3.5,NA,NA,"ARPA-Lombardia"
"ITC41_0NW51uh4.","IT","554","Saronno - via Santuario",45.62622,9.04006,NA,212,NA,NA,NA,NA,NA,NA,"ARPA-Lombardia"
"ITC42_0NaQ1vBW.","IT","561","Como - viale Cattaneo",45.81504,9.06697,NA,202,NA,NA,NA,NA,NA,NA,"ARPA-Lombardia"
"ITC42_0Njt1uxw.","IT","565","Cantù - via Meucci",45.73084,9.12573,NA,369,NA,NA,NA,NA,NA,NA,"ARPA-Lombardia"
"ITC42_0NzO1vAU.","IT","564","Erba - via Battisti",45.80857,9.22178,"IT2007A",279,"background","urban","automatic",3.5,NA,NA,"ARPA-Lombardia"
"ITC43_0O9o1vhu.","IT","1274","Perledo",46.01583,9.28641,"IT2014A",212,"background","rural","automatic",3,NA,NA,"ARPA-Lombardia"
"ITC43_0Ohr1vRI.","IT","681","Moggio",45.91279,9.49754,"IT1812A",1194,"background","rural","automatic",3.5,NA,NA,"ARPA-Lombardia"
"ITC43_0OKL1vFu.","IT","679","Valmadrera",45.84221,9.35166,NA,247,NA,NA,NA,NA,NA,NA,"ARPA-Lombardia"
"ITC43_0OPf1w1d.","IT","573","Colico",46.13814,9.38469,"IT0775A",229,"background","suburban","automatic",3,NA,NA,"ARPA-Lombardia"
"ITC43_0ORQ1vHC.","IT","574","Lecco - Via Amendola",45.85019,9.39558,"IT0776A",214,"traffic","urban","automatic",3,0.5,2.9,"ARPA-Lombardia"
"ITC43_0OS81vJN.","IT","706","Lecco - Via Sora",45.86375,9.39995,NA,272,NA,NA,NA,NA,NA,NA,"ARPA-Lombardia"
"ITC43_0OT81use.","IT","576","Merate",45.69795,9.40619,"IT0777A",279,"traffic","urban","automatic",3,13.8,6.4,"ARPA-Lombardia"
"ITC44_0Osw1w0h.","IT","572","Morbegno - via Cortivacci",46.13228,9.56618,"IT1190A",262,"background","urban","automatic",3,NA,NA,"ARPA-Lombardia"
"ITC44_0Pfx1w6S.","IT","569","Sondrio - via Mazzini",46.16797,9.87014,"IT0906A",307,"traffic","urban","automatic",3,7,17,"ARPA-Lombardia"
"ITC44_0PhQ1w6R.","IT","1264","Sondrio - via Paribelli",46.16785,9.87921,"IT1967A",290,"background","urban","automatic",3,NA,NA,"ARPA-Lombardia"
"ITC44_0QzS1wt5.","IT","571","Bormio",46.46952,10.37543,NA,1225,NA,NA,NA,NA,NA,NA,"ARPA-Lombardia"
"ITC46_0Ofj1urQ.","IT","685","Calusco d' Adda",45.69043,9.48426,NA,273,NA,NA,NA,NA,NA,NA,"ARPA-Lombardia"
"ITC46_0OrJ1uiJ.","IT","595","Filago - via Don Milani",45.63386,9.55608,"IT0837A",190,"background","urban","automatic",3.5,NA,NA,"ARPA-Lombardia"
"ITC46_0OrK1uMQ.","IT","609","Casirate d`Adda",45.49823,9.55623,"IT1464A",108,"background","rural","automatic",3.5,NA,NA,"ARPA-Lombardia"
"ITC46_0Ox61uPp.","IT","592","Treviglio",45.51933,9.59201,"IT0778A",191,"traffic","urban","automatic",3,10,2,"ARPA-Lombardia"
"ITC46_0Oya1ukr.","IT","1269","Dalmine - via Verdi",45.6497,9.60122,NA,207,NA,NA,NA,NA,NA,NA,"ARPA-Lombardia"
"ITC46_0P0H1ugA.","IT","596","Osio Sotto",45.62056,9.61174,"IT1463A",182,"background","suburban","automatic",3,NA,NA,"ARPA-Lombardia"
"ITC46_0P5R1urW.","IT","583","Bergamo - via Meucci",45.69104,9.64365,"IT0707A",249,"background","urban","automatic",3,NA,NA,"ARPA-Lombardia"
"ITC46_0P8G1usH.","IT","584","Bergamo - via Garibaldi",45.69568,9.66125,"IT0997A",249,"traffic","urban","automatic",3,10,2,"ARPA-Lombardia"
"ITC46_0Q881uvb.","IT","588","Tavernola Bergamasca",45.7163,10.04477,NA,191,NA,NA,NA,NA,NA,NA,"ARPA-Lombardia"
"ITC47_0Qaq1uTB.","IT","649","Brescia - Broletto",45.54006,10.22282,"IT0594A",149,"traffic","urban","automatic",3,4,12,"ARPA-Lombardia"
"ITC47_0QcI1uT5.","IT","652","Brescia - via Turati",45.53953,10.23179,"IT1251A",154,"traffic","urban","automatic",3,19,7,"ARPA-Lombardia"
"ITC47_0Qn91tiJ.","IT","656","Gambara",45.24954,10.29912,"IT0741A",47,"background","rural","automatic",3,NA,NA,"ARPA-Lombardia"
"ITC47_0Qt81uPF.","IT","661","Rezzato",45.51571,10.33624,NA,147,NA,NA,NA,NA,NA,NA,"ARPA-Lombardia"
"ITC47_0QTW1vL8.","IT","655","Darfo (aria)",45.8746,10.17736,"IT1385A",221,"background","suburban","automatic",3,NA,NA,"ARPA-Lombardia"
"ITC47_0QVr1uOo.","IT","669","Brescia - Villaggio Sereno",45.51304,10.19194,NA,70,NA,NA,NA,NA,NA,NA,"ARPA-Lombardia"
"ITC47_0QXz1ukq.","IT","654","Sarezzo - via Minelli",45.64963,10.20509,NA,269,NA,NA,NA,NA,NA,NA,"ARPA-Lombardia"
"ITC47_0R1h1ukG.","IT","659","Odolo",45.64605,10.3893,NA,349,NA,NA,NA,NA,NA,NA,"ARPA-Lombardia"
"ITC47_0RGS1uGs.","IT","657","Lonato",45.46375,10.48077,"IT0743A",180,"background","urban","automatic",3,NA,NA,"ARPA-Lombardia"
"ITC48_0Mlz1tnX.","IT","708","Parona",45.28194,8.75433,"IT1874A",112,"industrial","urban","automatic",3.5,NA,NA,"ARPA-Lombardia"
"ITC48_0N0a1tr2.","IT","709","Vigevano - via Valletta",45.30361,8.8448,"IT2079A",109,"background","urban","automatic",3,NA,NA,"ARPA-Lombardia"
"ITC48_0N5J1tMN.","IT","682","Ferrera Erbognone - ENI",45.1135,8.87406,"IT1746A",88,"industrial","rural","automatic",3.5,NA,NA,"ARPA-Lombardia"
"ITC48_0NAA1tKe.","IT","693","Sannazzaro de' Burgondi - AGIP",45.10277,8.90417,"IT0692A",85,"industrial","urban","automatic",3,NA,NA,"ARPA-Lombardia"
"ITC48_0NBl1tAX.","IT","672","Cornale (Voghera Energia)",45.04008,8.91414,"IT1736A",74,"background","rural","automatic",3.5,NA,NA,"ARPA-Lombardia"
"ITC48_0NnH1tY7.","IT","643","Pavia - p.zza Minerva",45.18633,9.14667,"IT1104A",77,"traffic","urban","automatic",3,20,6,"ARPA-Lombardia"
"ITC48_0NqA1tZT.","IT","642","Pavia - via Folperti",45.19468,9.16464,"IT0912A",77,"background","urban","automatic",3,NA,NA,"ARPA-Lombardia"
"ITC48_0NQy1t3z.","IT","673","Voghera - via Pozzoni",44.99955,9.00844,"IT1735A",90,"background","urban","automatic",3,NA,NA,"ARPA-Lombardia"
"ITC49_0Oft1trQ.","IT","600","Lodi - viale Vignati",45.30601,9.48526,"IT1286A",80,"traffic","urban","automatic",3,9,13,"ARPA-Lombardia"
"ITC49_0OhV1tqu.","IT","1265","Lodi - S. Alberto",45.30278,9.49527,"IT1965A",76,"background","urban","automatic",3,NA,NA,"ARPA-Lombardia"
"ITC49_0OUU1tvM.","IT","604","Tavazzano",45.33036,9.41464,"IT0267A",85,"background","suburban","automatic",3,NA,NA,"ARPA-Lombardia"
"ITC49_0Ow61trz.","IT","607","Abbadia Cerreto",45.3095,9.58579,"IT1288A",64,"background","rural","automatic",3,NA,NA,"ARPA-Lombardia"
"ITC49_0P951tfj.","IT","1266","Bertonico",45.23349,9.66625,"IT1964A",65,"background","rural","automatic",3,NA,NA,"ARPA-Lombardia"
"ITC49_0PED1tTm.","IT","608","Codogno - via Trento",45.15937,9.69815,"IT1287A",59,"traffic","urban","automatic",3,14,9,"ARPA-Lombardia"
"ITC49_0PEe1tHI.","IT","598","S.Rocco al Porto",45.08199,9.70079,NA,50,NA,NA,NA,NA,NA,NA,"ARPA-Lombardia"
"ITC4A_0Pes1tns.","IT","633","Soresina",45.28398,9.8634,"IT0840A",70,"traffic","suburban","automatic",3,20,10,"ARPA-Lombardia"
"ITC4A_0PF91u19.","IT","629","Crema - via XI febbraio",45.36631,9.70395,"IT0839A",79,"background","suburban","automatic",3,NA,NA,"ARPA-Lombardia"
"ITC4A_0Ppi1tSL.","IT","1297","Spinadesco",45.15047,9.9306,NA,48,NA,NA,NA,NA,NA,NA,"ARPA-Lombardia"
"ITC4A_0Q1u1tmz.","IT","626","Corte de Cortesi",45.27849,10.0062,"IT0842A",57,"background","rural","automatic",3.5,NA,NA,"ARPA-Lombardia"
"ITC4A_0Q3R1tPL.","IT","627","Cremona - p.zza Cadorna",45.13195,10.01574,"IT1153A",39,"traffic","urban","automatic",3,17,5,"ARPA-Lombardia"
"ITC4A_0Q7y1tR3.","IT","677","Cremona - Via Fatebenefratelli",45.14254,10.04384,"IT1739A",43,"background","urban","automatic",3,NA,NA,"ARPA-Lombardia"
"ITC4B_0RMN1srv.","IT","665","Viadana",44.92469,10.5175,"IT2230A",37,"background","urban","automatic",3.5,NA,NA,"ARPA-Lombardia"
"ITC4B_0Rn81u8e.","IT","695","Ponti sul Mincio",45.41277,10.68336,NA,113,NA,NA,NA,NA,NA,NA,"ARPA-Lombardia"
"ITC4B_0S2w1tSX.","IT","664","Mantova - p.zza Gramsci",45.15174,10.78141,NA,18,NA,NA,NA,NA,NA,NA,"ARPA-Lombardia"
"ITC4B_0S5E1tTy.","IT","670","Mantova - S.Agnese",45.16057,10.79556,"IT1868A",22,"background","urban","automatic",3,NA,NA,"ARPA-Lombardia"
"ITC4B_0S6T1tRV.","IT","663","Mantova - via Ariosto",45.14526,10.80333,"IT0709A",18,"background","urban","automatic",3.5,NA,NA,"ARPA-Lombardia"
"ITC4B_0SoT1t6n.","IT","703","Schivenoglia",45.01688,11.07609,NA,NA,NA,NA,NA,NA,NA,NA,"ARPA-Lombardia"
"ITC4B_0T5N1tBZ.","IT","697","Borgofranco - loc. Bonizzo",45.0465,11.18094,NA,14,NA,NA,NA,NA,NA,NA,"ARPA-Lombardia"
"ITC4C_0Mj71uR0.","IT","517","Turbigo",45.52655,8.7365,"IT1294A",141,"background","urban","automatic",3.5,NA,NA,"ARPA-Lombardia"
"ITC4C_0N0z1uUX.","IT","551","Arconate (aria)",45.54852,8.84732,NA,182,NA,NA,NA,NA,NA,NA,"ARPA-Lombardia"
"ITC4C_0N6I1uGe.","IT","546","Magenta",45.46242,8.88021,NA,137,NA,NA,NA,NA,NA,NA,"ARPA-Lombardia"
"ITC4C_0NNm1tnY.","IT","545","Motta Visconti (aria)",45.28196,8.98856,"IT1174A",100,"background","rural","automatic",3.5,NA,NA,"ARPA-Lombardia"
"ITC4C_0Npq1uUw.","IT","544","Cormano",45.55104,9.16261,NA,153,NA,NA,NA,NA,NA,NA,"ARPA-Lombardia"
"ITC4C_0Nqh1uDf.","IT","539","Milano - viale Liguria",45.44386,9.16794,NA,115,NA,NA,NA,NA,NA,NA,"ARPA-Lombardia"
"ITC4C_0NuP1uM7.","IT","501","Milano - viale Marche",45.49632,9.19093,"IT0477A",129,"traffic","urban","automatic",3.5,7,5,"ARPA-Lombardia"
"ITC4C_0Nv71uGn.","IT","528","Milano - Verziere",45.46335,9.19532,"IT0705A",116,"traffic","urban","automatic",3.5,4,8,"ARPA-Lombardia"
"ITC4C_0NvT1uHx.","IT","548","Milano - via Senato",45.4705,9.19746,"IT1016A",118,"traffic","urban","automatic",3.5,18,5,"ARPA-Lombardia"
"ITC4C_0NWo1uQU.","IT","514","Rho - via Statuto",45.52343,9.0446,"IT0592A",152,"background","urban","automatic",3.5,NA,NA,"ARPA-Lombardia"
"ITC4C_0O0M1uV9.","IT","529","Cinisello Balsamo",45.55233,9.22776,"IT0694A",149,"traffic","urban","automatic",3.5,10,5,"ARPA-Lombardia"
"ITC4C_0O1b1uJK.","IT","705","Milano - Pascal Città Studi",45.479,9.23549,"IT1692A",122,"background","urban","automatic",3.5,NA,NA,"ARPA-Lombardia"
"ITC4C_0O1h1uSK.","IT","504","Sesto S.Giovanni",45.53477,9.23611,"IT0480A",139,"traffic","urban","automatic",3.5,16,6,"ARPA-Lombardia"
"ITC4C_0O9D1u5y.","IT","606","S.Giuliano Milanese",45.39619,9.2827,"IT1290A",97,"traffic","urban","automatic",3.5,30,6,"ARPA-Lombardia"
"ITC4C_0OGQ1uK4.","IT","531","Limito",45.48363,9.32736,"IT0706A",114,"background","urban","automatic",3.5,NA,NA,"ARPA-Lombardia"
"ITC4C_0Okq1uQz.","IT","683","Cassano d'Adda 2 - Via Milano",45.52647,9.51598,NA,133,NA,NA,NA,NA,NA,NA,"ARPA-Lombardia"
"ITC4D_0Nos1umo.","IT","542","Meda",45.66176,9.15664,"IT1034A",222,"traffic","urban","automatic",3.5,14,9,"ARPA-Lombardia"
"ITC4D_0O7k1uZf.","IT","674","Monza - via Machiavelli",45.58026,9.27357,"IT1743A",162,"background","urban","automatic",3.5,NA,NA,"ARPA-Lombardia"
"ITC4D_0O7z1ud2.","IT","1374","Monza Parco",45.60123,9.27507,"IT2098A",181,"background","suburban","automatic",3.5,NA,NA,"ARPA-Lombardia"
"ITF31_0ayA1iax.","IT","ARPACAMPANIA_CIRILLO","Aversa Sc. Cirillo",40.9755,14.21142,"IT2271A",38,"traffic","urban","automatic",3.7,9,6,"ARPAC"
"ITF31_0bHV1irJ.","IT","ARPACAMPANIA_CE52","Caserta CE52 Sc. De Amicis",41.07692,14.33125,"IT1487A",68,"traffic","urban","automatic",3.7,15,3.5,"ARPAC"
"ITF31_0bId1ira.","IT","ARPACAMPANIA_CE51","Caserta CE51 Ist.Manzoni",41.07861,14.33833,NA,NA,NA,NA,NA,NA,NA,NA,"ARPAC"
"ITF31_0bP31imJ.","IT","ARPACAMPANIA_CE54","Maddaloni CE54 Sc. Settembrini",41.04593,14.37808,"IT1488A",71,"traffic","suburban","automatic",3.7,25,8,"ARPAC"
"ITF31_0bWS1idM.","IT","ARPACAMPANIA_CS","S. Felice a Cancello C. Scolast.",40.99043,14.42399,"IT2218A",39,"traffic","suburban","automatic",3.7,10,20,"ARPAC"
"ITF32_0cax1j2a.","IT","ARPACAMPANIA_BENEVZI","Benevento Zona Industriale",41.14684,14.83625,"IT2215A",128,"background","suburban","automatic",3.7,NA,NA,"ARPAC"
"ITF32_0cRr1ixZ.","IT","ARPACAMPANIA_BENEVCS","Benevento Campo Sportivo",41.11575,14.77989,"IT2228A",125,"background","urban","automatic",3.7,NA,NA,"ARPAC"
"ITF32_0cTM1j06.","IT","ARPACAMPANIA_BN32","Benevento BN32 Via Mustilli",41.13139,14.78917,"IT0934A",159,"traffic","urban","automatic",3.7,150,6,"ARPAC"
"ITF33_0ajo1iCL.","IT","ARPACAMPANIA_VILLAAV","Pozzuoli Zona Villa Avellino",40.82288,14.12244,NA,NA,NA,NA,NA,NA,NA,NA,"ARPAC"
"ITF33_0b1L1iGa.","IT","ARPACAMPANIA_NA02","Napoli NA02 Osp. Santobono",40.84917,14.23111,"IT1496A",173,"traffic","urban","automatic",3.7,1,4,"ARPAC"
"ITF33_0b4Z1iHO.","IT","ARPACAMPANIA_NA06","Napoli NA06 Museo Nazionale",40.85417,14.25111,"IT0898A",46,"traffic","urban","automatic",3.7,5,7,"ARPAC"
"ITF33_0b571iIv.","IT","ARPACAMPANIA_NA01","Napoli NA01 Oss. Astronomico",40.86369,14.25451,"IT1497A",145,"background","urban","automatic",3.7,NA,NA,"ARPAC"
"ITF33_0b7t1iHO.","IT","ARPACAMPANIA_NA07","Napoli NA07 Ferrovia",40.85417,14.27167,"IT1491A",13,"traffic","urban","automatic",3.7,22.3,6.7,"ARPAC"
"ITF33_0b9g1iKL.","IT","ARPACAMPANIA_NA08","Napoli NA08 Osp.N.Pellegrini",40.8725,14.28278,NA,NA,NA,NA,NA,NA,NA,NA,"ARPAC"
"ITF33_0bCE1iR8.","IT","ARPACAMPANIA_CASORIA","Casoria Scuola Palizzi",40.91463,14.29861,"IT2216A",57,"background","suburban","automatic",3.7,NA,NA,"ARPAC"
"ITF33_0bfi1iSi.","IT","ARPACAMPANIA_MARCONI","S.Vitaliano Scuola Marconi",40.92443,14.48145,"IT2212A",31,"background","urban","automatic",3.7,NA,NA,"ARPAC"
"ITF33_0bJ81iIx.","IT","ARPACAMPANIA_NA09","Napoli NA09 Via Argine",40.86389,14.34139,"IT1493A",33,"traffic","suburban","automatic",3.7,NA,5,"ARPAC"
"ITF33_0bKZ1iBE.","IT","ARPACAMPANIA_PR","Portici Parco Reggia",40.81597,14.35025,"IT2270A",75,"background","urban","automatic",3.7,NA,NA,"ARPAC"
"ITF33_0bNm1iVJ.","IT","ARPACAMPANIA_CAPORALE","Acerra Scuola Caporale",40.94046,14.3702,"IT2219A",27,"background","urban","automatic",3.7,NA,NA,"ARPAC"
"ITF33_0bQA1iS8.","IT","ARPACAMPANIA_AREAASI","Pomigliano D'Arco Area ASI",40.92083,14.385,NA,NA,NA,NA,NA,NA,NA,NA,"ARPAC"
"ITF33_0bSk1ibc.","IT","ARPACAMPANIA_ACERRAZI","Acerra Zona Industriale",40.97965,14.40098,"IT2211A",29,"industrial","suburban","automatic",3.7,NA,NA,"ARPAC"
"ITF33_0bYj1i2H.","IT","ARPACAMPANIA_PASCOLI","Torre Annunziata Sc. Pascoli",40.7605,14.43813,"IT2217A",45,"background","suburban","automatic",3.7,NA,NA,"ARPAC"
"ITF34_0cSl1iRn.","IT","ARPACAMPANIA_ALIGHIERI","Avellino Scuola Alighieri",40.9187,14.78549,"IT2227A",357,"traffic","urban","automatic",3.7,8,3,"ARPAC"
"ITF34_0cSx1iSV.","IT","ARPACAMPANIA_AV41","Avellino AV41 Sc. V Circolo",40.92305,14.78667,NA,NA,NA,NA,NA,NA,NA,NA,"ARPAC"
"ITF34_0cZ81iEO.","IT","ARPACAMPANIA_SOLOFRAZI","Solofra Zona Industriale",40.83556,14.825,"IT2210A",303,"industrial","suburban","automatic",3.7,NA,NA,"ARPAC"
"ITF34_0dGv1j47.","IT","ARPACAMPANIA_VILLACOM","Ariano Irpino Stadio",41.15631,15.0965,NA,NA,NA,NA,NA,NA,NA,NA,"ARPAC"
"ITF35_0c5r1hz0.","IT","ARPACAMPANIA_SOLIMENA","Nocera Inferiore Sc. Solimena",40.74025,14.64347,"IT2214A",48,"traffic","urban","automatic",3.7,1,2,"ARPAC"
"ITF35_0cFM1huI.","IT","ARPACAMPANIA_STADIO","Cava dei Tirreni Stadio",40.71098,14.70244,"IT2213A",191,"background","suburban","automatic",3.7,NA,NA,"ARPAC"
"ITF35_0cPd1hpe.","IT","ARPACAMPANIA_SA22","Salerno SA22 Osp. Via Vernieri",40.68222,14.76611,NA,NA,NA,NA,NA,NA,NA,NA,"ARPAC"
"ITF35_0cRT1hrl.","IT","ARPACAMPANIA_SA23","Salerno SA23 Scuola Conti",40.69528,14.7775,"IT1041A",41,"background","suburban","automatic",3.7,NA,NA,"ARPAC"
"ITF35_0cVp1hmK.","IT","ARPACAMPANIA_MERC","Salerno Parco Mercatello",40.66164,14.80451,"IT2269A",11,"background","urban","automatic",3.7,NA,NA,"ARPAC"
"ITF35_0cxT1heB.","IT","ARPACAMPANIA_PARCOF","Battipaglia Parco Fiume",40.61108,14.97586,"IT2268A",70,"background","urban","automatic",3.7,NA,NA,"ARPAC"
"ITF35_0eNF1hKL.","IT","ARPACAMPANIA_POLLA","Polla Area Ritovagliatore",40.48808,15.52008,NA,NA,NA,NA,NA,NA,NA,NA,"ARPAC"
"ITH20_0SD71vNr.","IT","402204","RIVA GAR",45.89147,10.84449,"IT0753A",73,"background","suburban","automatic",4,NA,NA,"APPA-Trento"
"ITH20_0SiY1vO0.","IT","402206","ROVERETO LGP",45.89244,11.03941,"IT0591A",200,"background","urban","automatic",4,NA,NA,"APPA-Trento"
"ITH20_0Sty1vwB.","IT","402211","TRENTO VBZ",46.10434,11.11023,"IT1859A",193,"traffic","urban","automatic",4,15,5,"APPA-Trento"
"ITH20_0SuU1wB6.","IT","402212","PIANA ROTALIANA",46.19684,11.11343,"IT1930A",227,"traffic","rural","automatic",4,NA,NA,"APPA-Trento"
"ITH20_0SVQ1vsf.","IT","402203","MONTE GAZA",46.08253,10.95804,"IT1191A",1601,"background","rural","automatic",4,NA,NA,"APPA-Trento"
"ITH20_0SwY1vpV.","IT","402209","TRENTO PSC",46.06293,11.12621,"IT1037A",203,"background","urban","automatic",4,NA,NA,"APPA-Trento"
"ITH20_0SXQ1uzm.","IT","402213","AVIO A22",45.74216,10.97044,NA,NA,"background","rural",NA,NA,NA,NA,"APPA-Trento"
"ITH20_0TnP1vni.","IT","402201","BORGO VAL",46.05184,11.45389,"IT0703A",380,"background","suburban","automatic",4,NA,NA,"APPA-Trento"
"ITH31_0Sh31uBu.","IT","502315","VR-Giarol Grande",45.43301,11.03009,"IT2243A",49,"background","suburban","automatic",2.75,NA,NA,"ARPAV"
"ITH31_0Si91ub6.","IT","502314","Boscochiesanuova",45.58918,11.03686,"IT1848A",824,"background","rural","automatic",2.75,NA,NA,"ARPAV"
"ITH31_0SUl1uDs.","IT","502304","VR- Borgo Milano",45.44522,10.95395,NA,62,"traffic","urban",NA,NA,NA,NA,"ARPAV"
"ITH31_0TMD1u6O.","IT","502310","S. Bonifacio",45.39883,11.2853,"IT1340A",30,"traffic","urban","automatic",2.75,NA,9,"ARPAV"
"ITH31_0TQH1tXW.","IT","502313","Legnago",45.18263,11.31051,"IT1535A",25,"background","urban","automatic",2.75,NA,NA,"ARPAV"
"ITH32_0TcW1uH5.","IT","502402","Montebello Vicentino",45.4651,11.38641,"IT1172A",61,"industrial","urban","automatic",2.75,NA,NA,"ARPAV"
"ITH32_0TNa1uSb.","IT","502416","Chiampo",45.53645,11.29379,"IT1833A",200,"industrial","urban","automatic",2.75,NA,NA,"ARPAV"
"ITH32_0TZV1uvA.","IT","502404","Schio",45.71356,11.36766,"IT0663A",190,"background","urban","automatic",2.75,NA,NA,"ARPAV"
"ITH32_0U0C1uTy.","IT","502414","VI - S. Felice",45.54499,11.53318,"IT1838A",35,"traffic","urban","automatic",2.75,NA,5,"ARPAV"
"ITH32_0U151uWK.","IT","502409","VI - Quartiere Italia",45.55956,11.53865,"IT1177A",36,"background","urban","automatic",2.75,NA,NA,"ARPAV"
"ITH32_0U5t1vGy.","IT","502415","Asiago Cima Ekar",45.84876,11.56849,"IT1791A",1366,"background","rural","automatic",2.75,NA,NA,"ARPAV"
"ITH32_0UWt1v2X.","IT","502401","Bassano del Grappa",45.75927,11.73585,"IT1065A",114,"background","urban","automatic",2.75,NA,NA,"ARPAV"
"ITH33_0UyR1vkP.","IT","502506","Area Feltrina",46.03126,11.90665,"IT1619A",263,"background","suburban","automatic",2.75,NA,NA,"ARPAV"
"ITH33_0Vlo1w2Y.","IT","502509","BL - La Cerva",46.14376,12.21279,NA,403,"traffic","urban",NA,NA,NA,NA,"ARPAV"
"ITH33_0Vmb1w2G.","IT","502505","BL - Parco Citta' di Bologna",46.14196,12.21765,"IT1594A",401,"background","urban","automatic",2.75,NA,NA,"ARPAV"
"ITH33_0W9l1w5Z.","IT","502507","Pieve d'Alpago",46.16251,12.36128,"IT1790A",615,"background","rural","automatic",2.75,NA,NA,"ARPAV"
"ITH34_0VmM1umK.","IT","502612","TV - S. Agnese",45.65879,12.21622,"IT2231A",15,"traffic","urban","automatic",2.75,NA,8,"ARPAV"
"ITH34_0Vpq1uoP.","IT","502608","TV - Via Lancieri",45.67172,12.23781,"IT1590A",15,"background","urban","automatic",2.75,NA,NA,"ARPAV"
"ITH34_0W111vNZ.","IT","502604","Conegliano",45.88973,12.30712,"IT1328A",72,"background","urban","automatic",2.75,NA,NA,"ARPAV"
"ITH34_0WXo1vF3.","IT","502609","Mansue'",45.83688,12.5104,"IT1596A",14,"background","rural","automatic",2.75,NA,NA,"ARPAV"
"ITH35_0Vkd1uCl.","IT","502723","VE - Malcontenta",45.43826,12.20553,"IT1936A",2,"industrial","suburban","automatic",2.75,NA,NA,"ARPAV"
"ITH35_0Vma1uL3.","IT","502720","VE - Via Tagliamento",45.48967,12.21764,"IT1862A",1,"traffic","urban","automatic",2.75,NA,4,"ARPAV"
"ITH35_0Vtc1uMe.","IT","502701","VE - Parco Bissuola",45.49962,12.26125,"IT0963A",1,"background","urban","automatic",2.75,NA,NA,"ARPAV"
"ITH35_0W1x1uBA.","IT","502717","VE - Sacca Fisola",45.42842,12.31293,"IT0448A",0,"background","urban","automatic",2.75,NA,NA,"ARPAV"
"ITH35_0Wkl1uhX.","IT","502715","S.Dona' di Piave",45.62909,12.59068,"IT1222A",3,"background","urban","automatic",2.75,NA,NA,"ARPAV"
"ITH36_0UHp1toj.","IT","502812","Parco Colli Euganei",45.28927,11.64254,"IT1870A",18,"background","rural","automatic",2.75,NA,NA,"ARPAV"
"ITH36_0ULe1tef.","IT","502811","Este",45.22693,11.66618,"IT1871A",12,"industrial","suburban","automatic",2.75,NA,NA,"ARPAV"
"ITH36_0Uno1u1u.","IT","502808","PD - Mandria",45.37098,11.84084,"IT1453A",13,"background","urban","automatic",2.75,NA,NA,"ARPAV"
"ITH36_0Uvh1uBt.","IT","502809","PD - Arcella",45.43287,11.88973,"IT1880A",11,"traffic","urban","automatic",2.75,NA,7,"ARPAV"
"ITH36_0Uxw1ud5.","IT","502814","S.Giustina in Colle",45.60155,11.90359,"IT2071A",25,"background","rural","automatic",2.75,NA,NA,"ARPAV"
"ITH37_0U3S1tKr.","IT","502969","Badia Polesine",45.10407,11.55338,"IT2072A",7,"background","rural","automatic",2.75,NA,NA,"ARPAV"
"ITH37_0UeP1tFz.","IT","502901","RO - Largo Martiri",45.07386,11.78251,"IT1215A",7,"traffic","urban","automatic",2.75,NA,6,"ARPAV"
"ITH37_0Ufe1tAK.","IT","502902","RO - Borsea",45.03876,11.79015,"IT1214A",3,"background","urban","automatic",2.75,NA,NA,"ARPAV"
"ITH37_0VNJ1tBS.","IT","502903","Adria",45.04583,12.06087,"IT1213A",0,"background","urban","automatic",2.75,NA,NA,"ARPAV"
"ITH41_0Wbz1vP0.","IT","BRU","Brugnera",45.89865,12.53631,"IT1097A",21,"background","suburban","automatic",2.5,NA,NA,"ARPA-FVG"
"ITH41_0Wvb1vZH.","IT","MAR","viale Marconi - Pordenone",45.96234,12.65795,"IT1099A",28,"traffic","urban","automatic",2.5,NA,NA,"ARPA-FVG"
"ITH41_0WvI1vZJ.","IT","PNC","Pordenone Centro",45.96254,12.65595,"IT2201A",30,"traffic","urban","automatic",2.5,NA,NA,"ARPA-FVG"
"ITH41_0WVW1vX9.","IT","SAC","Sacile",45.94913,12.49623,"IT1853A",23,"traffic","suburban","automatic",2.5,NA,NA,"ARPA-FVG"
"ITH42_0XqY1wiB.","IT","TOL","Tolmezzo",46.40187,13.01098,"IT1166A",316,"background","urban","automatic",2.5,NA,NA,"ARPA-FVG"
"ITH42_0XzZ1wF0.","IT","OPP","Osoppo",46.22101,13.06689,NA,NA,"background","suburban",NA,NA,NA,NA,"ARPA-FVG"
"ITH42_0YP71vl1.","IT","OSV","Sant'Osvaldo - Udine",46.0351,13.2253,NA,NA,"background","suburban",NA,NA,NA,NA,"ARPA-FVG"
"ITH42_0YqE1vb3.","IT","SGV","San Giovanni al Natisone",45.97331,13.3934,"IT1168A",62,"background","suburban","automatic",2.5,NA,NA,"ARPA-FVG"
"ITH42_0YRb1vq1.","IT","CAI","via Cairoli - Udine",46.06612,13.24069,"IT0966A",100,"background","urban","automatic",2.5,NA,NA,"ARPA-FVG"
"ITH43_0ZC51vAi.","IT","MON","Monfalcone",45.81001,13.52886,"IT1538A",5,"background","urban","automatic",2.5,NA,NA,"ARPA-FVG"
"ITH43_0ZQB1vVC.","IT","AOS","via Duca D'Aosta - Gorizia",45.93701,13.61633,"IT1587A",50,"traffic","urban","automatic",2.5,NA,NA,"ARPA-FVG"
"ITH44_0Zrn1uga.","IT","CAR","v. del Carpineto - Trieste",45.62319,13.78746,"IT1090A",50,"background","suburban","automatic",2.5,NA,NA,"ARPA-FVG"
"ITH51_0OMn1sNH.","IT","5000066","CORTE BRUGNATELLA",44.73473,9.36693,"IT2074A",765,"background","rural","automatic",3.2,NA,NA,"ARPAE"
"ITH51_0P9Z1tAH.","IT","5000065","PARCO MONTECUCCO",45.03854,9.66935,"IT1975A",61,"background","urban","automatic",3.2,NA,NA,"ARPAE"
"ITH51_0PDR1tBw.","IT","5000033","GIORDANI-FARNESE",45.04884,9.69327,"IT1923A",61,"traffic","urban","automatic",3.2,17,4,"ARPAE"
"ITH51_0PMF1tD5.","IT","5000024","GERBIDO",45.05589,9.74795,NA,NA,NA,NA,NA,NA,NA,NA,"ARPAE"
"ITH51_0PZY1sbf.","IT","5000007","LUGAGNANO",44.82389,9.83037,"IT0544A",210,"background","suburban","automatic",3.08,NA,NA,"ARPAE"
"ITH51_0Q401t2N.","IT","5000062","BESENZONE",44.9895,10.0192,"IT1924A",48,"background","rural","automatic",3.2,NA,NA,"ARPAE"
"ITH52_0Qla1sAw.","IT","2000214","BADIA",44.65823,10.28937,"IT1911A",202,"background","rural","automatic",3,NA,NA,"ARPAE"
"ITH52_0QsI1sWa.","IT","2000003","CITTADELLA",44.79242,10.33099,"IT0804A",60,"background","urban","automatic",3,NA,NA,"ARPAE"
"ITH52_0QtB1sVe.","IT","2000004","MONTEBELLO",44.78664,10.33648,"IT1105A",55,"traffic","urban","automatic",3,17,5,"ARPAE"
"ITH52_0QuU1seT.","IT","2000232","PARADIGNA",44.84128,10.34457,NA,NA,NA,NA,NA,NA,NA,NA,"ARPAE"
"ITH52_0Qyt1ss8.","IT","2000219","SARAGAT",44.92596,10.37191,"IT1910A",30,"background","suburban","automatic",3,NA,NA,"ARPAE"
"ITH52_0R231scV.","IT","2000230","BOGOLESE",44.82914,10.39154,NA,NA,NA,NA,NA,NA,NA,NA,"ARPAE"
"ITH52_0R3M1smT.","IT","2000229","MALCANTONE",44.89093,10.39961,NA,NA,NA,NA,NA,NA,NA,NA,"ARPAE"
"ITH53_0R8Q1rFH.","IT","3000018","FEBBIO",44.30071,10.43104,"IT1672A",1120,"background","rural","automatic",3,NA,NA,"ARPAE"
"ITH53_0RdM1sHc.","IT","3000025","TIMAVO",44.69955,10.62276,"IT2156A",59,"traffic","urban","automatic",3,25,5,"ARPAE"
"ITH53_0Rjw1sFu.","IT","3000007","S. LAZZARO",44.68904,10.66359,NA,NA,NA,NA,NA,NA,NA,NA,"ARPAE"
"ITH53_0Rk81sjh.","IT","3000022","S. ROCCO",44.87373,10.66478,"IT1914A",22,"background","rural","automatic",3,NA,NA,"ARPAE"
"ITH53_0RvH1ro2.","IT","3000001","CASTELLARANO",44.51624,10.7339,"IT0903A",150,"background","suburban","automatic",3,NA,NA,"ARPAE"
"ITH54_0S4i1rrw.","IT","4000155","PARCO EDILCARANI",44.54038,10.79236,"IT2073A",118,"background","urban","automatic",3,NA,NA,"ARPAE"
"ITH54_0S991rsE.","IT","4000110","SAN FRANCESCO",44.54215,10.81988,"IT1920A",131,"traffic","urban","automatic",3,40,3,"ARPAE"
"ITH54_0SJX1sXs.","IT","4000012","REMESINA",44.80038,10.88425,"IT1152A",25,"background","suburban","automatic",3,NA,NA,"ARPAE"
"ITH54_0SMz1s7W.","IT","4000002","GIARDINI",44.63699,10.90572,"IT0721A",39,"traffic","urban","automatic",3,3,5,"ARPAE"
"ITH54_0SNF1s9s.","IT","4000022","PARCO FERRARI",44.65157,10.90731,"IT1771A",34,"background","urban","automatic",3,NA,NA,"ARPAE"
"ITH54_0T531ssa.","IT","4000152","GAVELLO",44.92877,11.17895,"IT1921A",4,"background","rural","automatic",3,NA,NA,"ARPAE"
"ITH55_0SOq1qpQ.","IT","7000042","CASTELLUCCIO",44.14044,10.91717,NA,NA,NA,NA,NA,NA,NA,NA,"ARPAE"
"ITH55_0ThO1rg8.","IT","7000024","SAN LAZZARO",44.46719,11.4166,NA,NA,NA,NA,NA,NA,NA,NA,"ARPAE"
"ITH55_0TML1rlR.","IT","7000041","VIA CHIARINI",44.50009,11.28607,"IT2075A",56,"background","suburban","automatic",3,NA,NA,"ARPAE"
"ITH55_0TTB1rlQ.","IT","7000015","PORTA SAN FELICE",44.50002,11.3285,"IT1159A",54,"traffic","urban","automatic",3,20,7,"ARPAE"
"ITH55_0TXS1rim.","IT","7000014","GIARDINI MARGHERITA",44.48363,11.35504,"IT0892A",43,"background","urban","automatic",3,NA,NA,"ARPAE"
"ITH55_0UEy1sAI.","IT","7000027","SAN PIETRO CAPOFIUME",44.65423,11.62482,NA,NA,NA,NA,NA,NA,NA,NA,"ARPAE"
"ITH55_0UUR1rO6.","IT","7000002","DE AMICIS",44.35542,11.72067,"IT1029A",42,"traffic","urban","automatic",3,20,6,"ARPAE"
"ITH56_0TOX1sN0.","IT","8000038","CENTO",44.73301,11.29966,NA,NA,NA,NA,NA,NA,NA,NA,"ARPAE"
"ITH56_0UD51sef.","IT","8000002","ISONZO",44.84249,11.61314,"IT0187A",8,"traffic","urban","automatic",3,25,24,"ARPAE"
"ITH56_0UIy1sbj.","IT","8000040","VILLA FULVIA",44.82426,11.64962,"IT1918A",9,"background","urban","automatic",3,NA,NA,"ARPAE"
"ITH56_0V471sOH.","IT","8000041","OSTELLATO",44.7409,11.94194,"IT1919A",0,"background","rural","automatic",3,NA,NA,"ARPAE"
"ITH56_0V7F1seD.","IT","8000007","GHERARDI",44.83975,11.96125,"IT1179A",-2,"background","rural","automatic",3,NA,NA,"ARPAE"
"ITH57_0Ut41rCq.","IT","9000083","PARCO BERTOZZI",44.28561,11.8734,"IT2209A",35,"background","urban","automatic",3,NA,NA,"ARPAE"
"ITH57_0VAe1rpq.","IT","9000068","BALLIRANA",44.52743,11.98236,"IT1927A",1,"background","rural","automatic",3,NA,NA,"ARPAE"
"ITH57_0VhZ1rZm.","IT","9000014","ZALAMELLA",44.42778,12.18649,"IT0895A",4,"traffic","urban","automatic",3,18,2,"ARPAE"
"ITH57_0Vnq1rYP.","IT","9000021","CAORLE",44.41926,12.22538,"IT1204A",4,"background","urban","automatic",3,NA,NA,"ARPAE"
"ITH57_0W541rCZ.","IT","9000070","DELTA CERVIA",44.28386,12.33225,"IT1928A",0,"background","suburban","automatic",3,NA,NA,"ARPAE"
"ITH58_0VLG1r1U.","IT","6000010","PARCO RESISTENZA",44.21515,12.04816,NA,NA,NA,NA,NA,NA,NA,NA,"ARPAE"
"ITH58_0VMl1r1c.","IT","6000011","ROMA",44.21597,12.0575,"IT0755A",26,"traffic","urban","automatic",3,10,5,"ARPAE"
"ITH58_0Vnk1qH4.","IT","6000036","SAVIGNANO DI RIGO",43.92741,12.22479,"IT2027A",615,"background","rural","automatic",3,NA,NA,"ARPAE"
"ITH58_0Vqx1qpa.","IT","6000014","FRANCHINI-ANGELONI",44.14138,12.24474,NA,NA,NA,NA,NA,NA,NA,NA,"ARPAE"
"ITH58_0WGX1qiP.","IT","6000031","SAVIGNANO",44.09687,12.40333,"IT1908A",32,"background","suburban","automatic",3,NA,NA,"ARPAE"
"ITH59_0Web1qd9.","IT","10000002","MARECCHIA",44.06431,12.55249,NA,NA,NA,NA,NA,NA,NA,NA,"ARPAE"
"ITH59_0WGC1qDo.","IT","10000074","SAN LEO",43.90722,12.40123,"IT2158A",540,"background","rural","automatic",3,NA,NA,"ARPAE"
"ITH59_0WiL1qbB.","IT","10000001","FLAMINIA",44.0521,12.57568,"IT1044A",3,"traffic","urban","automatic",3,20,2,"ARPAE"
"ITH59_0WJO1qV1.","IT","10000059","VERUCCHIO",44.01388,12.42096,"IT1916A",78,"background","suburban","automatic",3,NA,NA,"ARPAE"
"ITH59_0Wqf1qHm.","IT","10000060","SAN CLEMENTE",43.93183,12.62728,"IT1915A",165,"background","rural","automatic",3,NA,NA,"ARPAE"
"ITI11_0QGR1qfH.","IT","450000003","MS-COLOMBAROTTO",44.07748,10.09632,"IT1819A",98,"background","urban","automatic",3.3,NA,NA,"ARPAT"
"ITI11_0QMK1qXn.","IT","450000007","MS-MARINA-VECCHIA",44.0311,10.13278,"IT2241A",42,"traffic","urban","automatic",3.5,NA,NA,"ARPAT"
"ITI12_0QeG1q9t.","IT","460000006","LU-VIAREGGIO",43.88291,10.24403,"IT1186A",3,"background","urban","automatic",3.3,NA,NA,"ARPAT"
"ITI12_0RBu1q7U.","IT","460000012","LU-CARIGNANO",43.86798,10.45256,"IT1644A",120,"background","rural","automatic",3.3,NA,NA,"ARPAT"
"ITI12_0RJh1q1l.","IT","460000014","LU-SAN-CONCORDIO",43.8325,10.50086,"IT2240A",13,"background","urban","automatic",3.5,NA,NA,"ARPAT"
"ITI12_0RLN1q3Q.","IT","460000003","LU-MICHELETTO",43.8428,10.51128,"IT1001A",15,"traffic","urban","automatic",3.3,NA,NA,"ARPAT"
"ITI12_0RTD1qTg.","IT","460000013","LU-FORNOLI",44.00557,10.55985,"IT2239A",130,"background","urban","automatic",3.5,NA,NA,"ARPAT"
"ITI12_0RVI1q2w.","IT","460000001","LU-CAPANNORI",43.83984,10.57283,"IT1187A",10,"background","urban","automatic",3.3,NA,NA,"ARPAT"
"ITI13_0SdA1qF5.","IT","470000005","PT-MONTALE",43.91514,11.00597,"IT1553A",48,"background","suburban","automatic",3.3,NA,NA,"ARPAT"
"ITI13_0SMl1qJ5.","IT","470000002","PT-SIGNORELLI",43.93986,10.9043,"IT1571A",80,"background","urban","automatic",3.3,NA,NA,"ARPAT"
"ITI14_0Sry1pvQ.","IT","480000028","FI-SIGNA",43.79323,11.09785,"IT2153A",41,"background","urban","automatic",3.3,NA,NA,"ARPAT"
"ITI14_0T791ppQ.","IT","480000008","FI-SCANDICCI",43.75597,11.19189,"IT1551A",45,"background","urban","automatic",3.3,NA,NA,"ARPAT"
"ITI14_0TDN1pu4.","IT","480000006","FI-MOSSE",43.78481,11.23045,"IT0860A",41,"traffic","urban","automatic",3.3,NA,NA,"ARPAT"
"ITI14_0TJw1ps1.","IT","480000004","FI-GRAMSCI",43.77207,11.27117,"IT0861A",49,"traffic","urban","automatic",3.3,NA,NA,"ARPAT"
"ITI14_0TMQ1puD.","IT","480000002","FI-BASSI",43.78565,11.28663,"IT0862A",61,"background","urban","automatic",3.3,NA,NA,"ARPAT"
"ITI14_0TpV1pTy.","IT","480000029","FI-FIGLINE",43.62303,11.46693,"IT2242A",121,"background","urban","automatic",3.3,NA,NA,"ARPAT"
"ITI14_0TSI1pub.","IT","480000007","FI-SETTIGNANO",43.78811,11.32303,"IT0883A",195,"background","suburban","automatic",3.3,NA,NA,"ARPAT"
"ITI15_0Sr51q8M.","IT","1000000002","PO-ROMA",43.87339,11.09231,"IT1654A",54,"background","urban","automatic",3.3,NA,NA,"ARPAT"
"ITI15_0St21q8R.","IT","1000000004","PO-FERRUCCI",43.87388,11.10441,"IT0945A",62,"traffic","urban","automatic",3.3,NA,NA,"ARPAT"
"ITI16_0Qqd1pDC.","IT","490000034","LI-CAPPIELLO",43.51898,10.32075,"IT1557A",13,"background","urban","automatic",3.3,NA,NA,"ARPAT"
"ITI16_0Qrv1pIn.","IT","490000037","LI-CARDUCCI",43.55374,10.32873,"IT1560A",9,"traffic","urban","automatic",3.3,NA,NA,"ARPAT"
"ITI16_0QsL1pKx.","IT","490000040","LI-LAPIRA",43.56714,10.33132,NA,NA,"background","urban",NA,NA,NA,NA,"ARPAT"
"ITI16_0RNT1ngV.","IT","490000039","LI-PIOMBINO-PARCO-VIII-MARZO",42.93193,10.52426,"IT2154A",40,"background","suburban","automatic",3.3,NA,NA,"ARPAT"
"ITI16_0ROv1nhV.","IT","490000007","LI-COTONE",42.93806,10.53332,"IT0063A",37,"industrial","suburban","automatic",3.3,NA,NA,"ARPAT"
"ITI17_0R3X1pmU.","IT","500000014","PI-PASSI",43.73783,10.40069,"IT1110A",5,"background","urban","automatic",3.3,NA,NA,"ARPAT"
"ITI17_0R4y1piU.","IT","500000015","PI-BORGHETTO",43.71301,10.4096,"IT1409A",5,"traffic","urban","automatic",3.3,NA,NA,"ARPAT"
"ITI17_0S1D1piM.","IT","500000008","PI-SANTA-CROCE-COOP",43.71221,10.77071,"IT1071A",16,"background","suburban","automatic",3.3,NA,NA,"ARPAT"
"ITI17_0SIy1oVH.","IT","500000019","PI-MONTECERBOLI",43.24674,10.88082,"IT1149A",353,"background","suburban","automatic",3.3,NA,NA,"ARPAT"
"ITI18_0UtT1p3w.","IT","510000001","AR-REPUBBLICA",43.4616,11.87586,"IT0832A",256,"traffic","urban","automatic",3.3,NA,NA,"ARPAT"
"ITI18_0UvQ1p3h.","IT","510000003","AR-ACROPOLI",43.46007,11.88803,"IT0950A",260,"background","urban","automatic",3.3,NA,NA,"ARPAT"
"ITI18_0UxT1pZo.","IT","510000010","AR-CASA-STABBI",43.65918,11.90068,"IT1681A",650,"background","rural","automatic",3.3,NA,NA,"ARPAT"
"ITI19_0Syw1p5b.","IT","520000029","SI-POGGIBONSI",43.47191,11.14103,"IT2032A",105,"background","urban","automatic",3.3,NA,NA,"ARPAT"
"ITI19_0TSX1ok5.","IT","520000030","SI-BRACCI",43.33846,11.32447,"IT2184A",316,"traffic","urban","automatic",3.3,NA,NA,"ARPAT"
"ITI1A_0SrF1n0B.","IT","530000005","GR-MAREMMA",42.66945,11.09331,"IT1942A",40,"background","rural","automatic",3.3,NA,NA,"ARPAT"
"ITI1A_0Stm1nF1.","IT","530000002","GR-SONNINO",42.7615,11.10902,"IT1592A",10,"traffic","urban","automatic",3.5,10,3,"ARPAT"
"ITI1A_0SvG1nHd.","IT","530000001","GR-URSS",42.77768,11.11821,"IT1593A",10,"background","urban","automatic",3.3,NA,NA,"ARPAT"
"ITI41_0Uta1nB0.","IT","59","Acquapendente",42.73665,11.87658,NA,436,"background","rural",NA,NA,NA,NA,"ARPA-Lazio"
"ITI41_0Uz71lxW.","IT","111","Monte Romano",42.26856,11.91091,NA,286,NA,NA,NA,NA,NA,NA,"ARPA-Lazio"
"ITI41_0VV51mMH.","IT","32","Viterbo",42.42206,12.10913,"IT0863A",338,"traffic","urban","automatic",3,NA,NA,"ARPA-Lazio"
"ITI41_0WI81m2s.","IT","90","Civita Castellana",42.3018,12.4132,"IT2175A",146,"background","urban","automatic",3,NA,NA,"ARPA-Lazio"
"ITI42_0Xie1mkY.","IT","37","Leonessa",42.57259,12.96198,"IT0989A",948,"background","rural","automatic",3,NA,NA,"ARPA-Lazio"
"ITI42_0XRu1mJN.","IT","17","Rieti 1",42.40409,12.85822,"IT0867A",397,"traffic","urban","automatic",3,NA,NA,"ARPA-Lazio"
"ITI43_0Uei1lWg.","IT","103","Fiumaretta",42.10216,11.78436,NA,1,NA,NA,NA,NA,NA,NA,"ARPA-Lazio"
"ITI43_0UfM1lVr.","IT","60","Civ. Porto",42.09705,11.78835,NA,NA,"industrial",NA,NA,NA,NA,NA,"ARPA-Lazio"
"ITI43_0UgV1lVN.","IT","85","Civ. Via Roma",42.09415,11.79551,"IT2171A",NA,"traffic","urban","automatic",3,NA,NA,"ARPA-Lazio"
"ITI43_0Ugv1lWE.","IT","83","Civ. Villa Albani",42.09936,11.79806,"IT2172A",NA,"traffic","urban","automatic",3,NA,NA,"ARPA-Lazio"
"ITI43_0Uhd1lUy.","IT","15","Civitavecchia",42.09163,11.80247,"IT0885A",26,"background","urban","automatic",3,NA,NA,"ARPA-Lazio"
"ITI43_0UiH1lUC.","IT","84","Civ. Via Morandi",42.0868,11.8065,NA,NA,"traffic","urban",NA,NA,NA,NA,"ARPA-Lazio"
"ITI43_0Uij1lTO.","IT","105","Campo dell'Oro",42.08183,11.80934,NA,74,NA,NA,NA,NA,NA,NA,"ARPA-Lazio"
"ITI43_0Ujn1lS4.","IT","106","S.Gordiano",42.07361,11.81592,NA,87,NA,NA,NA,NA,NA,NA,"ARPA-Lazio"
"ITI43_0Uk51lW9.","IT","104","Faro",42.0989,11.81769,NA,174,NA,NA,NA,NA,NA,NA,"ARPA-Lazio"
"ITI43_0UxM1lgA.","IT","107","Allumiere - v.Aldo Moro",42.16097,11.90002,NA,467,NA,NA,NA,NA,NA,NA,"ARPA-Lazio"
"ITI43_0UXy1lfz.","IT","102","S.Agostino",42.15995,11.74263,NA,16,NA,NA,NA,NA,NA,NA,"ARPA-Lazio"
"ITI43_0Uyl1lfd.","IT","14","Allumiere",42.15774,11.90874,"IT0884A",542,"background","rural","automatic",3,NA,NA,"ARPA-Lazio"
"ITI43_0V381lek.","IT","108","Tolfa",42.15223,11.93583,NA,576,NA,NA,NA,NA,NA,NA,"ARPA-Lazio"
"ITI43_0VnW1kfs.","IT","86","Fiumicino Porto",41.77485,12.22341,NA,22,NA,NA,NA,NA,NA,NA,"ARPA-Lazio"
"ITI43_0Vpi1keo.","IT","87","Fiumicino Villa Guglielmi",41.76819,12.23705,NA,21,NA,NA,NA,NA,NA,NA,"ARPA-Lazio"
"ITI43_0VuR1kyM.","IT","40","Castel di Guido",41.88944,12.2663,"IT0952A",61,"background","rural","automatic",3,NA,NA,"ARPA-Lazio"
"ITI43_0W7E1kw1.","IT","57","Malagrotta",41.87489,12.3456,"IT2012A",NA,"background","suburban","automatic",3,NA,NA,"ARPA-Lazio"
"ITI43_0WbZ1l7k.","IT","48","Bufalotta",41.94765,12.53368,"IT1835A",41,"background","urban","automatic",3,NA,NA,"ARPA-Lazio"
"ITI43_0Wcq1kxo.","IT","2","Preneste",41.88602,12.54161,"IT1176A",37,"background","urban","automatic",3,NA,NA,"ARPA-Lazio"
"ITI43_0We11l1j.","IT","55","Tiburtina",41.91026,12.54887,"IT1834A",32,"traffic","urban","automatic",3,NA,NA,"ARPA-Lazio"
"ITI43_0WhD1ktF.","IT","8","Cinecitta",41.85772,12.56866,"IT0956A",53,"background","urban","automatic",3,NA,NA,"ARPA-Lazio"
"ITI43_0WNg1l16.","IT","49","Cipro",41.90636,12.4476,"IT1836A",31,"background","urban","automatic",3,NA,NA,"ARPA-Lazio"
"ITI43_0WnO1kjb.","IT","45","Ciampino",41.79788,12.60703,"IT1841A",134,"traffic","urban","automatic",3,NA,NA,"ARPA-Lazio"
"ITI43_0WRD1kuI.","IT","47","Fermi",41.86419,12.46953,"IT1837A",26,"traffic","urban","automatic",3,NA,NA,"ARPA-Lazio"
"ITI43_0WRE1l7i.","IT","3","Francia",41.94745,12.46959,"IT0825A",43,"traffic","urban","automatic",3,NA,NA,"ARPA-Lazio"
"ITI43_0WSA1kz6.","IT","56","Arenula",41.89402,12.47537,"IT1906A",31,"background","urban","automatic",3,NA,NA,"ARPA-Lazio"
"ITI43_0Wvg1l4o.","IT","41","Cavaliere",41.92938,12.65836,NA,48,"background","suburban",NA,NA,NA,NA,"ARPA-Lazio"
"ITI43_0WXG1l5N.","IT","39","Villa Ada",41.93287,12.50697,"IT0953A",50,"background","urban","automatic",3,NA,NA,"ARPA-Lazio"
"ITI43_0WXZ1kxL.","IT","5","Magna Grecia",41.88306,12.50894,"IT0828A",49,"traffic","urban","automatic",3,NA,NA,"ARPA-Lazio"
"ITI43_0X6e1lFV.","IT","16","Guidonia",41.99568,12.72637,"IT0887A",89,"traffic","suburban","automatic",3,NA,NA,"ARPA-Lazio"
"ITI43_0XpU1kYm.","IT","10","Colleferro-Oberdan",41.73084,13.00435,"IT0888A",219,"industrial","suburban","automatic",3,NA,NA,"ARPA-Lazio"
"ITI43_0XqK1kXq.","IT","11","Colleferro-Europa",41.72501,13.00957,"IT0889A",223,"industrial","suburban","automatic",3,NA,NA,"ARPA-Lazio"
"ITI44_0Wuu1kCv.","IT","23","Aprilia 2",41.59534,12.65358,"IT0865A",83,"background","urban","automatic",3,NA,NA,"ARPA-Lazio"
"ITI44_0Xak1jrk.","IT","20","Via Tasso",41.46402,12.91304,"IT0869A",21,"traffic","urban","automatic",3,NA,NA,"ARPA-Lazio"
"ITI44_0Xg51k2c.","IT","51","Latina-Scalo",41.53143,12.94606,"IT1184A",18,"traffic","urban","automatic",NA,NA,NA,"ARPA-Lazio"
"ITI44_0XXJ1jpf.","IT","63","Viale De Chirico",41.45113,12.89173,"IT2174A",21,"traffic","urban","automatic",3,NA,NA,"ARPA-Lazio"
"ITI44_0ZIn1jEt.","IT","61","Gaeta",41.22307,13.57048,"IT2173A",4,"background","urban","automatic",3,NA,NA,"ARPA-Lazio"
"ITI45_0YCv1kbs.","IT","29","Anagni",41.75,13.14968,"IT0870A",401,"background","urban","automatic",3,NA,NA,"ARPA-Lazio"
"ITI45_0Yg81kGu.","IT","62","Frosinone Scalo",41.62,13.33081,"IT1200A",161,"traffic","urban","automatic",3,NA,NA,"ARPA-Lazio"
"ITI45_0YhA1k8q.","IT","27","Ceccano",41.57,13.33719,"IT0872A",130,"traffic","urban","automatic",3,NA,NA,"ARPA-Lazio"
"ITI45_0YhL1kYe.","IT","35","Alatri",41.73,13.33833,"IT0991A",445,"background","urban","automatic",NA,NA,NA,"ARPA-Lazio"
"ITI45_0Yj31kK5.","IT","71","Frosinone Mazzini",41.63967,13.34891,NA,NA,"traffic","urban",NA,NA,NA,NA,"ARPA-Lazio"
"ITI45_0YTA1kSC.","IT","28","Ferentino",41.69,13.25041,"IT0871A",316,"traffic","urban","automatic",3,NA,NA,"ARPA-Lazio"
"ITI45_0Zyl1jvw.","IT","52","Cassino",41.49,13.83069,"IT1183A",41,"traffic","urban","automatic",3,NA,NA,"ARPA-Lazio"
"ITI45_0ZZZ1kOy.","IT","36","Fontechiari",41.67,13.67447,"IT0992A",388,"background","rural","automatic",3,NA,NA,"ARPA-Lazio"
